{
  "market_id": "columbus-oh",
  "market_name": "Columbus, OH Metro (PetTripFinder discovery scope)",
  "state": "OH",
  "country": "US",
  "market_center": {"lat": 39.96, "lng": -82.99},
  "geographic_bounds": {
    "min_lat": 39.82, "max_lat": 40.20, "min_lng": -83.20, "max_lng": -82.75,
    "_disclosure": "A loose enclosing box over the named municipalities below, not an authoritative metro-area boundary."
  },
  "coordinate_precision_disclosure": "All lat/lng values in this file are low-precision (~2 decimal places, roughly 1km) approximate municipal-center reference points from general public geographic knowledge, rounded deliberately to avoid a false impression of survey-grade precision. They are seed points for bounded-radius provider queries only, per mission Task 2's instruction not to add precise boundaries from memory without a cited source. A future sprint should replace them with a cited source (e.g. US Census TIGER/Line places or municipal open-data GIS) before any precision-dependent use.",
  "included_municipalities": [
    "Columbus", "Dublin", "Hilliard", "Worthington", "Westerville",
    "Upper Arlington", "Gahanna", "Reynoldsburg", "Grove City", "Powell",
    "New Albany"
  ],
  "cells": [
    {"cell_id": "columbus-oh__columbus-downtown", "municipality": "Columbus", "label": "Columbus - downtown/near-north", "center_lat": 39.96, "center_lng": -82.99, "radius_meters": 6000},
    {"cell_id": "columbus-oh__columbus-north", "municipality": "Columbus", "label": "Columbus - north side (Clintonville/Linden)", "center_lat": 40.02, "center_lng": -83.00, "radius_meters": 6000},
    {"cell_id": "columbus-oh__columbus-south", "municipality": "Columbus", "label": "Columbus - south side (German Village/Marion-Franklin)", "center_lat": 39.90, "center_lng": -82.98, "radius_meters": 6000},
    {"cell_id": "columbus-oh__dublin", "municipality": "Dublin", "label": "Dublin", "center_lat": 40.10, "center_lng": -83.11, "radius_meters": 6000},
    {"cell_id": "columbus-oh__hilliard", "municipality": "Hilliard", "label": "Hilliard", "center_lat": 40.03, "center_lng": -83.16, "radius_meters": 5000},
    {"cell_id": "columbus-oh__worthington", "municipality": "Worthington", "label": "Worthington", "center_lat": 40.09, "center_lng": -83.02, "radius_meters": 4000},
    {"cell_id": "columbus-oh__westerville", "municipality": "Westerville", "label": "Westerville", "center_lat": 40.13, "center_lng": -82.93, "radius_meters": 5000},
    {"cell_id": "columbus-oh__upper-arlington", "municipality": "Upper Arlington", "label": "Upper Arlington", "center_lat": 40.00, "center_lng": -83.06, "radius_meters": 4000},
    {"cell_id": "columbus-oh__gahanna", "municipality": "Gahanna", "label": "Gahanna", "center_lat": 40.02, "center_lng": -82.88, "radius_meters": 4500},
    {"cell_id": "columbus-oh__reynoldsburg", "municipality": "Reynoldsburg", "label": "Reynoldsburg", "center_lat": 39.95, "center_lng": -82.81, "radius_meters": 4500},
    {"cell_id": "columbus-oh__grove-city", "municipality": "Grove City", "label": "Grove City", "center_lat": 39.88, "center_lng": -83.09, "radius_meters": 5000},
    {"cell_id": "columbus-oh__powell", "municipality": "Powell", "label": "Powell", "center_lat": 40.16, "center_lng": -83.08, "radius_meters": 4000},
    {"cell_id": "columbus-oh__new-albany", "municipality": "New Albany", "label": "New Albany", "center_lat": 40.08, "center_lng": -82.81, "radius_meters": 4500}
  ],
  "scope_disclosure": "13 cells: 3 subdividing Columbus proper plus 1 per named suburb. This is a conservative starting seed for the scaffolding validated in AES-DATA-004A, not full-city coverage -- Columbus proper is geographically large and a future sprint should subdivide it into a denser grid before any unrestricted import. Deliberately excludes municipalities not named in the mission scope to avoid sweeping all of central Ohio."
}
